[
  {
    "Name": "United Food Bank",
    "State": "Arizona",
    "Address": "245 South Nina Drive",
    "City": "Mesa",
    "State Zipcode": "AZ 85210",
    "Contact": "480-926-4897",
    "latitude": 33.4098257,
    "longitude": -111.8503169,
    "geocoding_status": "success"
  },
  {
    "Name": "St. Mary's Food Bank Alliance",
    "State": "Arizona",
    "Address": "2831 N. 31st Avenue",
    "City": "Phoenix",
    "State Zipcode": "AZ 85009",
    "Contact": "602-242-3663 / 602-344-4124",
    "latitude": 33.4790395,
    "longitude": -112.124838,
    "geocoding_status": "success"
  },
  {
    "Name": "Community Food Bank of Southern Arizona",
    "State": "Arizona",
    "Address": "3003 South Country Club Road",
    "City": "Tucson",
    "State Zipcode": "AZ 85713",
    "Contact": "520-622-0525",
    "latitude": 32.1887366,
    "longitude": -110.9250603,
    "geocoding_status": "success"
  },
  {
    "Name": "Yuma Community Food Bank",
    "State": "Arizona",
    "Address": "2404 E 24th St. Ste. A",
    "City": "Yuma",
    "State Zipcode": "AZ 85365",
    "Contact": "928-343-1243",
    "latitude": 32.6848298,
    "longitude": -114.5933474,
    "geocoding_status": "success"
  },
  {
    "Name": "Arizona Food Bank Network",
    "State": "Arizona",
    "Address": "340 E Coronado Road",
    "City": "Phoenix",
    "State Zipcode": "AZ 85004-1524",
    "Contact": "602-528-3434 / info@azfoodbanks.org",
    "latitude": 33.4680478,
    "longitude": -112.0676664,
    "geocoding_status": "success"
  },
  {
    "Name": "Midwest Food Bank of Arizona",
    "State": "Arizona",
    "Address": "725 E. Baseline Road",
    "City": "Gilbert",
    "State Zipcode": "AZ 85233",
    "Contact": "480-892-0134",
    "latitude": 33.378234,
    "longitude": -111.8173775,
    "geocoding_status": "success"
  },
  {
    "Name": "Food Bank of Alaska",
    "State": "Alaska",
    "Address": "825 E 7th Ave",
    "City": "Anchorage",
    "State Zipcode": "AK 99501",
    "Contact": "(907) 561-3737",
    "latitude": 61.2158004,
    "longitude": -149.867922,
    "geocoding_status": "success"
  },
  {
    "Name": "Fairbanks Community Food Bank",
    "State": "Alaska",
    "Address": "725 26th Ave",
    "City": "Fairbanks",
    "State Zipcode": "AK 99701",
    "Contact": "(907) 457-4273",
    "latitude": 64.823005,
    "longitude": -147.716671,
    "geocoding_status": "success"
  },
  {
    "Name": "Juneau Food Bank",
    "State": "Alaska",
    "Address": "8617 Teal St",
    "City": "Juneau",
    "State Zipcode": "AK 99801",
    "Contact": "(907) 789-9780",
    "latitude": 58.3601762,
    "longitude": -134.5753103,
    "geocoding_status": "success"
  },
  {
    "Name": "Southeast Alaska Food Bank",
    "State": "Alaska",
    "Address": "229 Fourth St",
    "City": "Juneau",
    "State Zipcode": "AK 99801",
    "Contact": "(907) 723-6110",
    "latitude": 58.3022986,
    "longitude": -134.4087054,
    "geocoding_status": "success"
  },
  {
    "Name": "Food Bank of Northeast Arkansas",
    "State": "Arkansas",
    "Address": "3414 One Place",
    "City": "Jonesboro",
    "State Zipcode": "AR 72402",
    "Contact": "870-932-3663",
    "latitude": 35.8039129,
    "longitude": -90.6479772,
    "geocoding_status": "success"
  },
  {
    "Name": "River Valley Regional Food Bank",
    "State": "Arkansas",
    "Address": "1617 S Zero St",
    "City": "Fort Smith",
    "State Zipcode": "AR 72901",
    "Contact": "479-785-0582",
    "latitude": 35.3286751,
    "longitude": -94.4176106,
    "geocoding_status": "success"
  },
  {
    "Name": "Arkansas Foodbank",
    "State": "Arkansas",
    "Address": "4301 Asher Ave",
    "City": "Little Rock",
    "State Zipcode": "AR 72204",
    "Contact": "501-372-2200",
    "latitude": 34.7240955,
    "longitude": -92.322008,
    "geocoding_status": "success"
  },
  {
    "Name": "Northwest Arkansas Food Bank",
    "State": "Arkansas",
    "Address": "1378 Simon Rd",
    "City": "Springdale",
    "State Zipcode": "AR 72764",
    "Contact": "479-872-8778",
    "latitude": 36.2101275,
    "longitude": -94.00127,
    "geocoding_status": "success"
  },
  {
    "Name": "Food Bank of the Rockies",
    "State": "Colorado",
    "Address": "10700 E 45th Ave",
    "City": "Denver",
    "State Zipcode": "CO 80239",
    "Contact": "303-371-9250",
    "latitude": 39.7777161,
    "longitude": -104.8637146,
    "geocoding_status": "success"
  },
  {
    "Name": "Care and Share Food Bank for Southern Colorado",
    "State": "Colorado",
    "Address": "2605 Pikes Peak Ave",
    "City": "Colorado Springs",
    "State Zipcode": "CO 80909",
    "Contact": "719-528-1500",
    "latitude": 38.8326729,
    "longitude": -104.7805093,
    "geocoding_status": "success"
  },
  {
    "Name": "Weld Food Bank",
    "State": "Colorado",
    "Address": "1108 H St",
    "City": "Greeley",
    "State Zipcode": "CO 80631",
    "Contact": "970-356-6461",
    "latitude": 40.4436776,
    "longitude": -104.698802,
    "geocoding_status": "success"
  },
  {
    "Name": "Community Food Share",
    "State": "Colorado",
    "Address": "2305 S 114th St",
    "City": "Lafayette",
    "State Zipcode": "CO 80026",
    "Contact": "303-652-3663",
    "latitude": 39.9935959,
    "longitude": -105.0897058,
    "geocoding_status": "success"
  },
  {
    "Name": "Connecticut Foodshare",
    "State": "Connecticut",
    "Address": "2 Research Parkway",
    "City": "Wallingford",
    "State Zipcode": "CT 06492",
    "Contact": "203-230-1213",
    "latitude": 41.48105200000001,
    "longitude": -72.765537,
    "geocoding_status": "success"
  },
  {
    "Name": "Food Bank of Lower Fairfield County",
    "State": "Connecticut",
    "Address": "461 Glenbrook Rd",
    "City": "Stamford",
    "State Zipcode": "CT 06906",
    "Contact": "203-358-8898",
    "latitude": 41.0689861,
    "longitude": -73.52003169999999,
    "geocoding_status": "success"
  },
  {
    "Name": "Food Bank of Delaware",
    "State": "Delaware",
    "Address": "222 Lake Dr",
    "City": "Newark",
    "State Zipcode": "DE 19702",
    "Contact": "302-292-1300",
    "latitude": 39.613557,
    "longitude": -75.75444970000001,
    "geocoding_status": "success"
  },
  {
    "Name": "Capital Area Food Bank",
    "State": "District of Columbia",
    "Address": "4900 Capital Ct SW",
    "City": "Washington",
    "State Zipcode": "DC 20032",
    "Contact": "202-644-9800",
    "latitude": 38.8964972,
    "longitude": -77.002672,
    "geocoding_status": "success"
  },
  {
    "Name": "Harry Chapin Food Bank of the Harry Chapin Foundation",
    "State": "Florida",
    "Address": "3760 Fowler St",
    "City": "Fort Myers",
    "State Zipcode": "FL 33901",
    "Contact": "239-334-7007",
    "latitude": 26.6073116,
    "longitude": -81.8631675,
    "geocoding_status": "success"
  },
  {
    "Name": "Feeding South Florida",
    "State": "Florida",
    "Address": "2501 SW 32nd St",
    "City": "Pembroke Park",
    "State Zipcode": "FL 33023",
    "Contact": "954-518-1818",
    "latitude": 25.987854,
    "longitude": -80.1733821,
    "geocoding_status": "success"
  },
  {
    "Name": "Second Harvest Food Bank of Central Florida",
    "State": "Florida",
    "Address": "411 Mercy Dr",
    "City": "Orlando",
    "State Zipcode": "FL 32805",
    "Contact": "407-295-1088",
    "latitude": 28.54824,
    "longitude": -81.42944469999999,
    "geocoding_status": "success"
  },
  {
    "Name": "Feeding Tampa Bay",
    "State": "Florida",
    "Address": "4702 Transport Dr",
    "City": "Tampa",
    "State Zipcode": "FL 33615",
    "Contact": "813-254-1190",
    "latitude": 27.9588454,
    "longitude": -82.4070627,
    "geocoding_status": "success"
  },
  {
    "Name": "Atlanta Community Food Bank",
    "State": "Georgia",
    "Address": "3400 N Desert Dr",
    "City": "Atlanta",
    "State Zipcode": "GA 30344",
    "Contact": "404-892-9822",
    "latitude": 33.6608235,
    "longitude": -84.4952771,
    "geocoding_status": "success"
  },
  {
    "Name": "Food Bank of Northeast Georgia",
    "State": "Georgia",
    "Address": "864 Commerce Rd",
    "City": "Athens",
    "State Zipcode": "GA 30607",
    "Contact": "706-354-8292",
    "latitude": 33.9788087,
    "longitude": -83.3780587,
    "geocoding_status": "success"
  },
  {
    "Name": "America's Second Harvest of Coastal Georgia",
    "State": "Georgia",
    "Address": "2501 E President St",
    "City": "Savannah",
    "State Zipcode": "GA 31404",
    "Contact": "912-236-6751",
    "latitude": 32.065819,
    "longitude": -81.0438253,
    "geocoding_status": "success"
  },
  {
    "Name": "Golden Harvest Food Bank",
    "State": "Georgia",
    "Address": "331 Augusta Ave",
    "City": "Augusta",
    "State Zipcode": "GA 30901",
    "Contact": "706-722-7283",
    "latitude": 33.4646185,
    "longitude": -81.9870934,
    "geocoding_status": "success"
  },
  {
    "Name": "Hawaii Foodbank",
    "State": "Hawaii",
    "Address": "2616 Kilihau St",
    "City": "Honolulu",
    "State Zipcode": "HI 96819",
    "Contact": "808-836-3600",
    "latitude": 21.335813,
    "longitude": -157.8948278,
    "geocoding_status": "success"
  },
  {
    "Name": "The Food Basket Hawaii Island's Food Bank",
    "State": "Hawaii",
    "Address": "40 Holomua St",
    "City": "Hilo",
    "State Zipcode": "HI 96720",
    "Contact": "808-933-6030",
    "latitude": 19.7045774,
    "longitude": -155.0665273,
    "geocoding_status": "success"
  },
  {
    "Name": "Idaho Foodbank",
    "State": "Idaho",
    "Address": "2208 E 17th St",
    "City": "Boise",
    "State Zipcode": "ID 83706",
    "Contact": "208-336-9643",
    "latitude": 43.6404126,
    "longitude": -116.2095687,
    "geocoding_status": "success"
  },
  {
    "Name": "Community Food Basket - Idaho Falls",
    "State": "Idaho",
    "Address": "1575 W Broadway St",
    "City": "Idaho Falls",
    "State Zipcode": "ID 83402",
    "Contact": "208-524-0992",
    "latitude": 43.4967714,
    "longitude": -112.0620165,
    "geocoding_status": "success"
  },
  {
    "Name": "Food Bank of Northern Illinois",
    "State": "Illinois",
    "Address": "273 Dearborn St",
    "City": "Geneva",
    "State Zipcode": "IL 60134",
    "Contact": "630-443-6960",
    "latitude": 41.887242,
    "longitude": -88.2675611,
    "geocoding_status": "success"
  },
  {
    "Name": "Greater Chicago Food Depository",
    "State": "Illinois",
    "Address": "4100 S Cicero Ave",
    "City": "Chicago",
    "State Zipcode": "IL 60632",
    "Contact": "773-247-3663",
    "latitude": 41.8205857,
    "longitude": -87.7442365,
    "geocoding_status": "success"
  },
  {
    "Name": "Central Illinois Foodbank",
    "State": "Illinois",
    "Address": "1924 E Sangamon Ave",
    "City": "Springfield",
    "State Zipcode": "IL 62702",
    "Contact": "217-522-6883",
    "latitude": 39.8308139,
    "longitude": -89.6292287,
    "geocoding_status": "success"
  },
  {
    "Name": "Hoosier Hills Food Bank",
    "State": "Indiana",
    "Address": "2333 W Industrial Park Dr",
    "City": "Bloomington",
    "State Zipcode": "IN 47404",
    "Contact": "812-334-8374",
    "latitude": 39.1742614,
    "longitude": -86.5681274,
    "geocoding_status": "success"
  },
  {
    "Name": "Food Bank of Northeast Indiana",
    "State": "Indiana",
    "Address": "702 Webster St",
    "City": "Fort Wayne",
    "State Zipcode": "IN 46802",
    "Contact": "260-747-0596",
    "latitude": 41.0797435,
    "longitude": -85.1435491,
    "geocoding_status": "success"
  },
  {
    "Name": "Gleaners Food Bank of Indiana",
    "State": "Indiana",
    "Address": "3737 Waldemere Ave",
    "City": "Indianapolis",
    "State Zipcode": "IN 46241",
    "Contact": "317-925-0191",
    "latitude": 39.7106552,
    "longitude": -86.26087799999999,
    "geocoding_status": "success"
  },
  {
    "Name": "Food Bank of Iowa",
    "State": "Iowa",
    "Address": "2220 E 17th St",
    "City": "Des Moines",
    "State Zipcode": "IA 50316",
    "Contact": "515-440-4700",
    "latitude": 41.6144031,
    "longitude": -93.5923124,
    "geocoding_status": "success"
  },
  {
    "Name": "HACAP Food Reservoir",
    "State": "Iowa",
    "Address": "1555 35th St",
    "City": "Marion",
    "State Zipcode": "IA 52302",
    "Contact": "319-366-7999",
    "latitude": 42.0400152,
    "longitude": -91.5742499,
    "geocoding_status": "success"
  },
  {
    "Name": "River Bend Food Bank",
    "State": "Iowa",
    "Address": "901 6th St",
    "City": "Moline",
    "State Zipcode": "IL 61265",
    "Contact": "563-345-6490",
    "latitude": 41.5030101,
    "longitude": -90.5275329,
    "geocoding_status": "success"
  },
  {
    "Name": "Harvesters - The Community Food Network",
    "State": "Kansas",
    "Address": "3801 Topping Ave",
    "City": "Kansas City",
    "State Zipcode": "MO 64129",
    "Contact": "816-929-3000",
    "latitude": 39.0551271,
    "longitude": -94.5163971,
    "geocoding_status": "success"
  },
  {
    "Name": "Kansas Food Bank",
    "State": "Kansas",
    "Address": "1919 E Douglas Ave",
    "City": "Wichita",
    "State Zipcode": "KS 67211",
    "Contact": "316-264-7979",
    "latitude": 37.685674,
    "longitude": -97.3143797,
    "geocoding_status": "success"
  },
  {
    "Name": "God's Pantry Food Bank",
    "State": "Kentucky",
    "Address": "1685 Jaggie Fox Way",
    "City": "Lexington",
    "State Zipcode": "KY 40511",
    "Contact": "859-255-6492",
    "latitude": 38.0853047,
    "longitude": -84.51845349999999,
    "geocoding_status": "success"
  },
  {
    "Name": "Dare to Care Food Bank",
    "State": "Kentucky",
    "Address": "5803 Fern Valley Rd",
    "City": "Louisville",
    "State Zipcode": "KY 40228",
    "Contact": "502-966-7332",
    "latitude": 38.1567458,
    "longitude": -85.65354549999999,
    "geocoding_status": "success"
  },
  {
    "Name": "Feeding America Kentucky's Heartland",
    "State": "Kentucky",
    "Address": "1054 Industrial Park Rd",
    "City": "Elizabethtown",
    "State Zipcode": "KY 42701",
    "Contact": "270-769-6997",
    "latitude": 37.6758258,
    "longitude": -85.8398161,
    "geocoding_status": "success"
  },
  {
    "Name": "Food Bank of Central Louisiana",
    "State": "Louisiana",
    "Address": "302 Food Bank Ln",
    "City": "Alexandria",
    "State Zipcode": "LA 71302",
    "Contact": "318-445-2771",
    "latitude": 31.2290578,
    "longitude": -92.3912362,
    "geocoding_status": "success"
  },
  {
    "Name": "Food Bank of Northeast Louisiana",
    "State": "Louisiana",
    "Address": "4600 S 2nd St",
    "City": "Monroe",
    "State Zipcode": "LA 71202",
    "Contact": "318-322-3568",
    "latitude": 32.4921069,
    "longitude": -92.1075648,
    "geocoding_status": "success"
  },
  {
    "Name": "Second Harvest Food Bank of Greater New Orleans and Acadiana",
    "State": "Louisiana",
    "Address": "700 Edwards Ave",
    "City": "Jefferson",
    "State Zipcode": "LA 70121",
    "Contact": "504-734-1322",
    "latitude": 29.9523179,
    "longitude": -90.1922456,
    "geocoding_status": "success"
  },
  {
    "Name": "Greater Baton Rouge Food Bank",
    "State": "Louisiana",
    "Address": "10600 S Choctaw Dr",
    "City": "Baton Rouge",
    "State Zipcode": "LA 70815",
    "Contact": "225-357-9916",
    "latitude": 30.4730157,
    "longitude": -91.065348,
    "geocoding_status": "success"
  },
  {
    "Name": "Good Shepherd Food Bank of Maine",
    "State": "Maine",
    "Address": "317 St John St",
    "City": "Auburn",
    "State Zipcode": "ME 04210",
    "Contact": "207-782-3554",
    "latitude": 44.1114611,
    "longitude": -70.2556579,
    "geocoding_status": "success"
  },
  {
    "Name": "Wayside Food Programs",
    "State": "Maine",
    "Address": "136 Washington Ave",
    "City": "Portland",
    "State Zipcode": "ME 04101",
    "Contact": "207-775-4939",
    "latitude": 43.667773,
    "longitude": -70.25367179999999,
    "geocoding_status": "success"
  },
  {
    "Name": "Maryland Food Bank",
    "State": "Maryland",
    "Address": "2201 Eagle St",
    "City": "Baltimore",
    "State Zipcode": "MD 21223",
    "Contact": "410-737-8282",
    "latitude": 39.2793814,
    "longitude": -76.6502199,
    "geocoding_status": "success"
  },
  {
    "Name": "Capital Area Food Bank",
    "State": "Maryland",
    "Address": "4900 Capital Ct SW",
    "City": "Washington",
    "State Zipcode": "DC 20032",
    "Contact": "202-644-9800",
    "latitude": 38.8964972,
    "longitude": -77.002672,
    "geocoding_status": "success"
  },
  {
    "Name": "The Greater Boston Food Bank",
    "State": "Massachusetts",
    "Address": "70 South Bay Ave",
    "City": "Boston",
    "State Zipcode": "MA 02118",
    "Contact": "617-427-5200",
    "latitude": 42.3341818,
    "longitude": -71.0659336,
    "geocoding_status": "success"
  },
  {
    "Name": "Food Bank of Western Massachusetts",
    "State": "Massachusetts",
    "Address": "97 North Hatfield Rd",
    "City": "Hatfield",
    "State Zipcode": "MA 01038",
    "Contact": "413-247-9780",
    "latitude": 42.39785790000001,
    "longitude": -72.61490549999999,
    "geocoding_status": "success"
  },
  {
    "Name": "Merrimack Valley Food Bank",
    "State": "Massachusetts",
    "Address": "57 Inman St",
    "City": "Lawrence",
    "State Zipcode": "MA 01841",
    "Contact": "978-454-7276",
    "latitude": 42.6880726,
    "longitude": -71.16025069999999,
    "geocoding_status": "success"
  },
  {
    "Name": "Food Bank of Eastern Michigan",
    "State": "Michigan",
    "Address": "230 Food Bank Dr",
    "City": "Flint",
    "State Zipcode": "MI 48506",
    "Contact": "810-239-4441",
    "latitude": 43.0651073,
    "longitude": -83.624201,
    "geocoding_status": "success"
  },
  {
    "Name": "Gleaners Community Food Bank of Southeastern Michigan",
    "State": "Michigan",
    "Address": "2131 Beaufait St",
    "City": "Detroit",
    "State Zipcode": "MI 48207",
    "Contact": "313-923-3500",
    "latitude": 42.3543531,
    "longitude": -83.01440079999999,
    "geocoding_status": "success"
  },
  {
    "Name": "Feeding America West Michigan",
    "State": "Michigan",
    "Address": "864 W River Center Dr NW",
    "City": "Comstock Park",
    "State Zipcode": "MI 49321",
    "Contact": "616-784-3250",
    "latitude": 43.0485315,
    "longitude": -85.6501941,
    "geocoding_status": "success"
  },
  {
    "Name": "Second Harvest Heartland",
    "State": "Minnesota",
    "Address": "1149 Pierce Butler Route",
    "City": "St Paul",
    "State Zipcode": "MN 55104",
    "Contact": "651-484-5117",
    "latitude": 44.9669223,
    "longitude": -93.1488425,
    "geocoding_status": "success"
  },
  {
    "Name": "Mississippi Food Network",
    "State": "Mississippi",
    "Address": "201 N Gallatin St",
    "City": "Jackson",
    "State Zipcode": "MS 39203",
    "Contact": "601-353-7292",
    "latitude": 32.3038593,
    "longitude": -90.1931332,
    "geocoding_status": "success"
  },
  {
    "Name": "Food Bank of Central & Northeast Missouri",
    "State": "Missouri",
    "Address": "2101 Vandiver Dr",
    "City": "Columbia",
    "State Zipcode": "MO 65202",
    "Contact": "573-474-6500",
    "latitude": 38.9723198,
    "longitude": -92.306637,
    "geocoding_status": "success"
  },
  {
    "Name": "Harvesters - The Community Food Network",
    "State": "Missouri",
    "Address": "3801 Topping Ave",
    "City": "Kansas City",
    "State Zipcode": "MO 64129",
    "Contact": "816-929-3000",
    "latitude": 39.0551271,
    "longitude": -94.5163971,
    "geocoding_status": "success"
  },
  {
    "Name": "St. Louis Area Foodbank",
    "State": "Missouri",
    "Address": "70 Corporate Woods Dr",
    "City": "Bridgeton",
    "State Zipcode": "MO 63045",
    "Contact": "314-292-6200",
    "latitude": 38.7826647,
    "longitude": -90.4623055,
    "geocoding_status": "success"
  },
  {
    "Name": "Montana Food Bank Network",
    "State": "Montana",
    "Address": "5625 Highway 93 S",
    "City": "Missoula",
    "State Zipcode": "MT 59804",
    "Contact": "406-721-3825",
    "latitude": 46.8074441,
    "longitude": -114.0988701,
    "geocoding_status": "success"
  },
  {
    "Name": "Food Bank of Lincoln",
    "State": "Nebraska",
    "Address": "4840 Doris Bair Cir",
    "City": "Lincoln",
    "State Zipcode": "NE 68504",
    "Contact": "402-466-8170",
    "latitude": 40.8624164,
    "longitude": -96.6515603,
    "geocoding_status": "success"
  },
  {
    "Name": "Food Bank for the Heartland",
    "State": "Nebraska",
    "Address": "10525 J St",
    "City": "Omaha",
    "State Zipcode": "NE 68137",
    "Contact": "402-331-1210",
    "latitude": 41.2136751,
    "longitude": -96.0776892,
    "geocoding_status": "success"
  },
  {
    "Name": "Three Square Food Bank",
    "State": "Nevada",
    "Address": "4180 N Pecos Rd",
    "City": "Las Vegas",
    "State Zipcode": "NV 89115",
    "Contact": "702-644-9777",
    "latitude": 36.2355221,
    "longitude": -115.0981221,
    "geocoding_status": "success"
  },
  {
    "Name": "Food Bank of Northern Nevada",
    "State": "Nevada",
    "Address": "550 Industrial Rd",
    "City": "Sparks",
    "State Zipcode": "NV 89431",
    "Contact": "775-331-3663",
    "latitude": 39.5349112,
    "longitude": -119.7526886,
    "geocoding_status": "success"
  },
  {
    "Name": "New Hampshire Food Bank",
    "State": "New Hampshire",
    "Address": "70 Hackett Hill Rd",
    "City": "Manchester",
    "State Zipcode": "NH 03102",
    "Contact": "603-669-9724",
    "latitude": 43.0372823,
    "longitude": -71.4837081,
    "geocoding_status": "success"
  },
  {
    "Name": "Community FoodBank of New Jersey",
    "State": "New Jersey",
    "Address": "33 2nd Ave",
    "City": "Hillside",
    "State Zipcode": "NJ 07205",
    "Contact": "908-355-3663",
    "latitude": 40.6943207,
    "longitude": -74.22684819999999,
    "geocoding_status": "success"
  },
  {
    "Name": "Food Bank of South Jersey",
    "State": "New Jersey",
    "Address": "501 N Kings Hwy",
    "City": "Pennsauken Township",
    "State Zipcode": "NJ 08109",
    "Contact": "856-662-4882",
    "latitude": 39.9087766,
    "longitude": -75.0153007,
    "geocoding_status": "success"
  },
  {
    "Name": "Roadrunner Food Bank",
    "State": "New Mexico",
    "Address": "5840 Office Blvd NE",
    "City": "Albuquerque",
    "State Zipcode": "NM 87109",
    "Contact": "505-349-5300",
    "latitude": 35.1465006,
    "longitude": -106.6000575,
    "geocoding_status": "success"
  },
  {
    "Name": "The Food Bank of Western New York",
    "State": "New York",
    "Address": "91 Holt St",
    "City": "Buffalo",
    "State Zipcode": "NY 14206",
    "Contact": "716-852-1305",
    "latitude": 42.8809638,
    "longitude": -78.83101289999999,
    "geocoding_status": "success"
  },
  {
    "Name": "Food Bank For New York City",
    "State": "New York",
    "Address": "355 Food Center Dr",
    "City": "Bronx",
    "State Zipcode": "NY 10474",
    "Contact": "212-566-7855",
    "latitude": 40.807618,
    "longitude": -73.8750627,
    "geocoding_status": "success"
  },
  {
    "Name": "Regional Food Bank of Northeastern New York",
    "State": "New York",
    "Address": "965 Albany Shaker Rd",
    "City": "Latham",
    "State Zipcode": "NY 12110",
    "Contact": "518-786-3691",
    "latitude": 42.7641471,
    "longitude": -73.81318569999999,
    "geocoding_status": "success"
  },
  {
    "Name": "Food Bank of Central & Eastern North Carolina",
    "State": "North Carolina",
    "Address": "1924 Capital Blvd",
    "City": "Raleigh",
    "State Zipcode": "NC 27604",
    "Contact": "919-828-0824",
    "latitude": 35.80437879999999,
    "longitude": -78.6152381,
    "geocoding_status": "success"
  },
  {
    "Name": "Second Harvest Food Bank of Northwest North Carolina",
    "State": "North Carolina",
    "Address": "3655 Reed St",
    "City": "Winston-Salem",
    "State Zipcode": "NC 27107",
    "Contact": "336-784-5770",
    "latitude": 36.0532946,
    "longitude": -80.2109085,
    "geocoding_status": "success"
  },
  {
    "Name": "MANNA Food Bank",
    "State": "North Carolina",
    "Address": "627 Swannanoa River Rd",
    "City": "Asheville",
    "State Zipcode": "NC 28805",
    "Contact": "828-299-3663",
    "latitude": 35.5772515,
    "longitude": -82.49816249999999,
    "geocoding_status": "success"
  },
  {
    "Name": "Great Plains Food Bank",
    "State": "North Dakota",
    "Address": "1720 3rd Ave N",
    "City": "Fargo",
    "State Zipcode": "ND 58102",
    "Contact": "701-232-6219",
    "latitude": 46.878862,
    "longitude": -96.8097418,
    "geocoding_status": "success"
  },
  {
    "Name": "Foodbank of the Virginia Peninsula",
    "State": "Ohio",
    "Address": "2401 Aluminum Ave",
    "City": "Hampton",
    "State Zipcode": "VA 23661",
    "Contact": "757-596-7188",
    "latitude": 37.0055539,
    "longitude": -76.4039004,
    "geocoding_status": "success"
  },
  {
    "Name": "Greater Cleveland Food Bank",
    "State": "Ohio",
    "Address": "15500 S Waterloo Rd",
    "City": "Cleveland",
    "State Zipcode": "OH 44110",
    "Contact": "216-738-2000",
    "latitude": 41.5668697,
    "longitude": -81.5725229,
    "geocoding_status": "success"
  },
  {
    "Name": "Mid-Ohio Food Collective",
    "State": "Ohio",
    "Address": "3960 Brookham Dr",
    "City": "Grove City",
    "State Zipcode": "OH 43123",
    "Contact": "614-274-7770",
    "latitude": 39.8823768,
    "longitude": -83.0497396,
    "geocoding_status": "success"
  },
  {
    "Name": "Regional Food Distribution Association",
    "State": "Oklahoma",
    "Address": "3355 S Purdue Ave",
    "City": "Oklahoma City",
    "State Zipcode": "OK 73179",
    "Contact": "405-972-1111",
    "latitude": 35.4311191,
    "longitude": -97.6146581,
    "geocoding_status": "success"
  },
  {
    "Name": "Community Food Bank of Eastern Oklahoma",
    "State": "Oklahoma",
    "Address": "1304 N Kenosha Ave",
    "City": "Tulsa",
    "State Zipcode": "OK 74106",
    "Contact": "918-585-2800",
    "latitude": 36.1734044,
    "longitude": -95.9830135,
    "geocoding_status": "success"
  },
  {
    "Name": "Oregon Food Bank",
    "State": "Oregon",
    "Address": "7900 NE 33rd Dr",
    "City": "Portland",
    "State Zipcode": "OR 97211",
    "Contact": "503-282-0555",
    "latitude": 45.5803199,
    "longitude": -122.6318336,
    "geocoding_status": "success"
  },
  {
    "Name": "Feeding Pennsylvania",
    "State": "Pennsylvania",
    "Address": "902 Packer St",
    "City": "Sunbury",
    "State Zipcode": "PA 17801",
    "Contact": "570-286-3201",
    "latitude": 40.8680972,
    "longitude": -76.7813619,
    "geocoding_status": "success"
  },
  {
    "Name": "Philabundance",
    "State": "Pennsylvania",
    "Address": "3616 S Galloway St",
    "City": "Philadelphia",
    "State Zipcode": "PA 19148",
    "Contact": "215-339-0900",
    "latitude": 39.9022551,
    "longitude": -75.1567294,
    "geocoding_status": "success"
  },
  {
    "Name": "Greater Pittsburgh Community Food Bank",
    "State": "Pennsylvania",
    "Address": "1 N Linden St",
    "City": "Duquesne",
    "State Zipcode": "PA 15110",
    "Contact": "412-460-3663",
    "latitude": 40.375831,
    "longitude": -79.84234909999999,
    "geocoding_status": "success"
  },
  {
    "Name": "Rhode Island Community Food Bank",
    "State": "Rhode Island",
    "Address": "200 Niantic Ave",
    "City": "Providence",
    "State Zipcode": "RI 02907",
    "Contact": "401-941-6300",
    "latitude": 41.7968826,
    "longitude": -71.4378852,
    "geocoding_status": "success"
  },
  {
    "Name": "Harvest Hope Food Bank",
    "State": "South Carolina",
    "Address": "2220 Shop Rd",
    "City": "Columbia",
    "State Zipcode": "SC 29201",
    "Contact": "803-799-6670",
    "latitude": 33.9629842,
    "longitude": -80.9898453,
    "geocoding_status": "success"
  },
  {
    "Name": "Lowcountry Food Bank",
    "State": "South Carolina",
    "Address": "2864 Azalea Dr",
    "City": "North Charleston",
    "State Zipcode": "SC 29405",
    "Contact": "843-747-8000",
    "latitude": 32.8443388,
    "longitude": -79.972257,
    "geocoding_status": "success"
  },
  {
    "Name": "Feeding the Gulf Coast",
    "State": "South Carolina",
    "Address": "5248 Mobile South St",
    "City": "Theodore",
    "State Zipcode": "AL 36582",
    "Contact": "251-653-1617",
    "latitude": 30.5810325,
    "longitude": -88.1628193,
    "geocoding_status": "success"
  },
  {
    "Name": "Feeding South Dakota",
    "State": "South Dakota",
    "Address": "4721 E 52nd St N",
    "City": "Sioux Falls",
    "State Zipcode": "SD 57104",
    "Contact": "605-335-0364",
    "latitude": 43.59267200000001,
    "longitude": -96.693164,
    "geocoding_status": "success"
  },
  {
    "Name": "Second Harvest Food Bank of Middle Tennessee",
    "State": "Tennessee",
    "Address": "331 Great Circle Rd",
    "City": "Nashville",
    "State Zipcode": "TN 37228",
    "Contact": "615-329-3411",
    "latitude": 36.1991094,
    "longitude": -86.79422559999999,
    "geocoding_status": "success"
  },
  {
    "Name": "Mid-South Food Bank",
    "State": "Tennessee",
    "Address": "3865 S Perkins Rd",
    "City": "Memphis",
    "State Zipcode": "TN 38118",
    "Contact": "901-527-0841",
    "latitude": 35.0432536,
    "longitude": -89.9098755,
    "geocoding_status": "success"
  },
  {
    "Name": "Chattanooga Area Food Bank",
    "State": "Tennessee",
    "Address": "2009 Curtain Pole Rd",
    "City": "Chattanooga",
    "State Zipcode": "TN 37406",
    "Contact": "423-622-1800",
    "latitude": 35.062407,
    "longitude": -85.2753111,
    "geocoding_status": "success"
  },
  {
    "Name": "Feeding Texas",
    "State": "Texas",
    "Address": "6500 Metropolis Dr Ste 100",
    "City": "Austin",
    "State Zipcode": "TX 78744",
    "Contact": "512-527-3663",
    "latitude": 30.2036875,
    "longitude": -97.7098511,
    "geocoding_status": "success"
  },
  {
    "Name": "Houston Food Bank",
    "State": "Texas",
    "Address": "535 Portwall St",
    "City": "Houston",
    "State Zipcode": "TX 77029",
    "Contact": "713-547-8600",
    "latitude": 29.7806498,
    "longitude": -95.2748896,
    "geocoding_status": "success"
  },
  {
    "Name": "North Texas Food Bank",
    "State": "Texas",
    "Address": "4500 S Cockrell Hill Rd",
    "City": "Dallas",
    "State Zipcode": "TX 75236",
    "Contact": "214-330-1396",
    "latitude": 32.6889959,
    "longitude": -96.8905642,
    "geocoding_status": "success"
  },
  {
    "Name": "San Antonio Food Bank",
    "State": "Texas",
    "Address": "5200 Enrique M. Barrera Pkwy",
    "City": "San Antonio",
    "State Zipcode": "TX 78207",
    "Contact": "210-337-3663",
    "latitude": 29.4175413,
    "longitude": -98.5918487,
    "geocoding_status": "success"
  },
  {
    "Name": "Utah Food Bank",
    "State": "Utah",
    "Address": "3150 S 900 W",
    "City": "Salt Lake City",
    "State Zipcode": "UT 84119",
    "Contact": "801-978-1234",
    "latitude": 40.7047576,
    "longitude": -111.917823,
    "geocoding_status": "success"
  },
  {
    "Name": "Vermont Foodbank",
    "State": "Vermont",
    "Address": "33 Parker Rd",
    "City": "Barre",
    "State Zipcode": "VT 05641",
    "Contact": "802-476-3341",
    "latitude": 44.1733374,
    "longitude": -72.4825974,
    "geocoding_status": "success"
  },
  {
    "Name": "Blue Ridge Area Food Bank",
    "State": "Virginia",
    "Address": "573 Moores Creek Ln",
    "City": "Verona",
    "State Zipcode": "VA 24482",
    "Contact": "540-248-3663",
    "latitude": 38.2096215,
    "longitude": -79.0079949,
    "geocoding_status": "success"
  },
  {
    "Name": "Feed More",
    "State": "Virginia",
    "Address": "3636 S Shannon Ave",
    "City": "Richmond",
    "State Zipcode": "VA 23234",
    "Contact": "804-521-2500",
    "latitude": 37.4664427,
    "longitude": -77.46283249999999,
    "geocoding_status": "success"
  },
  {
    "Name": "Food Lifeline",
    "State": "Washington",
    "Address": "815 S 96th St",
    "City": "Seattle",
    "State Zipcode": "WA 98108",
    "Contact": "206-767-5000",
    "latitude": 47.51624159079713,
    "longitude": -122.3224405978604,
    "geocoding_status": "success"
  },
  {
    "Name": "Second Harvest",
    "State": "Washington",
    "Address": "1234 E Trent Ave",
    "City": "Spokane",
    "State Zipcode": "WA 99202",
    "Contact": "509-535-6652",
    "latitude": 47.66150820000001,
    "longitude": -117.3915373,
    "geocoding_status": "success"
  },
  {
    "Name": "Mountaineer Food Bank",
    "State": "West Virginia",
    "Address": "484 Wilson Ave",
    "City": "Gassaway",
    "State Zipcode": "WV 26624",
    "Contact": "304-364-5518",
    "latitude": 38.6731544,
    "longitude": -80.7748218,
    "geocoding_status": "success"
  },
  {
    "Name": "Feeding America Eastern Wisconsin",
    "State": "Wisconsin",
    "Address": "1700 W Fond du Lac Ave",
    "City": "Milwaukee",
    "State Zipcode": "WI 53205",
    "Contact": "414-931-7400",
    "latitude": 43.0574654,
    "longitude": -87.93310439999999,
    "geocoding_status": "success"
  },
  {
    "Name": "Second Harvest Foodbank of Southern Wisconsin",
    "State": "Wisconsin",
    "Address": "2802 Dairy Dr",
    "City": "Madison",
    "State Zipcode": "WI 53718",
    "Contact": "608-221-3333",
    "latitude": 43.0582467,
    "longitude": -89.2957976,
    "geocoding_status": "success"
  },
  {
    "Name": "Food Bank of Wyoming",
    "State": "Wyoming",
    "Address": "4120 Burling Dr",
    "City": "Mills",
    "State Zipcode": "WY 82604",
    "Contact": "307-265-2172",
    "latitude": 42.8520151,
    "longitude": -106.3853416,
    "geocoding_status": "success"
  }
]